{"segment_id": "HN_001", "segment_name": "Nguyen Trai", "city": "hanoi", "lat": 20.9956, "lon": 105.822, "timestamp": "2026-05-14T03:47:05.567426+00:00", "currentSpeed": 24, "freeFlowSpeed": 37, "currentTravelTime": 663, "freeFlowTravelTime": 430, "confidence": 1, "roadClosure": false, "source": "tomtom"}
{"segment_id": "HN_002", "segment_name": "Giai Phong", "city": "hanoi", "lat": 20.9842, "lon": 105.8412, "timestamp": "2026-05-14T03:47:06.308854+00:00", "currentSpeed": 25, "freeFlowSpeed": 37, "currentTravelTime": 885, "freeFlowTravelTime": 598, "confidence": 1, "roadClosure": false, "source": "tomtom"}
{"segment_id": "HN_003", "segment_name": "Cau Giay", "city": "hanoi", "lat": 21.0285, "lon": 105.7934, "timestamp": "2026-05-14T03:47:07.040781+00:00", "currentSpeed": 25, "freeFlowSpeed": 37, "currentTravelTime": 1426, "freeFlowTravelTime": 964, "confidence": 1, "roadClosure": false, "source": "tomtom"}
{"segment_id": "HN_004", "segment_name": "Lang Ha", "city": "hanoi", "lat": 21.0128, "lon": 105.8156, "timestamp": "2026-05-14T03:47:07.854907+00:00", "currentSpeed": 22, "freeFlowSpeed": 32, "currentTravelTime": 466, "freeFlowTravelTime": 320, "confidence": 1, "roadClosure": false, "source": "tomtom"}
{"segment_id": "HN_005", "segment_name": "Truong Chinh", "city": "hanoi", "lat": 20.9901, "lon": 105.833, "timestamp": "2026-05-14T03:47:08.673211+00:00", "currentSpeed": 22, "freeFlowSpeed": 35, "currentTravelTime": 1170, "freeFlowTravelTime": 735, "confidence": 1, "roadClosure": false, "source": "tomtom"}
