{"segment_id": "HN_001", "segment_name": "Nguyen Trai", "city": "hanoi", "lat": 20.9956, "lon": 105.822, "timestamp": "2026-05-14T04:37:48.126164+00:00", "currentSpeed": 23, "freeFlowSpeed": 36, "currentTravelTime": 692, "freeFlowTravelTime": 442, "confidence": 1, "roadClosure": false, "source": "tomtom"}
{"segment_id": "HN_002", "segment_name": "Giai Phong", "city": "hanoi", "lat": 20.9842, "lon": 105.8412, "timestamp": "2026-05-14T04:37:48.870103+00:00", "currentSpeed": 26, "freeFlowSpeed": 37, "currentTravelTime": 851, "freeFlowTravelTime": 598, "confidence": 1, "roadClosure": false, "source": "tomtom"}
{"segment_id": "HN_003", "segment_name": "Cau Giay", "city": "hanoi", "lat": 21.0285, "lon": 105.7934, "timestamp": "2026-05-14T04:37:49.765039+00:00", "currentSpeed": 23, "freeFlowSpeed": 37, "currentTravelTime": 1550, "freeFlowTravelTime": 964, "confidence": 1, "roadClosure": false, "source": "tomtom"}
{"segment_id": "HN_004", "segment_name": "Lang Ha", "city": "hanoi", "lat": 21.0128, "lon": 105.8156, "timestamp": "2026-05-14T04:37:50.583298+00:00", "currentSpeed": 24, "freeFlowSpeed": 32, "currentTravelTime": 427, "freeFlowTravelTime": 320, "confidence": 1, "roadClosure": false, "source": "tomtom"}
{"segment_id": "HN_005", "segment_name": "Truong Chinh", "city": "hanoi", "lat": 20.9901, "lon": 105.833, "timestamp": "2026-05-14T04:37:51.300179+00:00", "currentSpeed": 21, "freeFlowSpeed": 34, "currentTravelTime": 1226, "freeFlowTravelTime": 757, "confidence": 1, "roadClosure": false, "source": "tomtom"}
